{
"type": "FeatureCollection",
"name": "Non_Public_Schools",
"crs": { "type": "name", "properties": { "name": "urn:ogc:def:crs:OGC:1.3:CRS84" } },
"features": [
{ "type": "Feature", "properties": { "OBJECTID_1": 85, "OBJECTID": 163, "SCHID": "5300", "NAME": "Roxbury Prep - Mission Hill", "ADDRESS": "120 Fisher Avenue", "TOWN_MAIL": "Roxbury", "TOWN": "BOSTON", "STATE": "MA", "ZIP": "02120", "PRINCIPAL": "Dana Lehman", "PHONE": "617-566-2361", "FAX": "617-566-2373", "GRADES": "6,7,8", "TYPE": "CHA" }, "geometry": { "type": "Point", "coordinates": [ -71.105143153835641, 42.327675744783583 ] } },
{ "type": "Feature", "properties": { "OBJECTID_1": 86, "OBJECTID": 153, "SCHID": "5470", "NAME": "Helen Davis Leadership Academy Charter Public School", "ADDRESS": "23 Leonard Street", "TOWN_MAIL": "Boston", "TOWN": "BOSTON", "STATE": "MA", "ZIP": "02122", "PRINCIPAL": "Karmala Sherwood", "PHONE": "617-474-7950", "FAX": "617-474-7957", "GRADES": "6,7,8", "TYPE": "CHA" }, "geometry": { "type": "Point", "coordinates": [ -71.058717101118404, 42.301402641896985 ] } },
{ "type": "Feature", "properties": { "OBJECTID_1": 87, "OBJECTID": 1100, "SCHID": "00350950", "NAME": "British School of Boston", "ADDRESS": "416-420 Pond Street", "TOWN_MAIL": "Jamaica Plain", "TOWN": "BOSTON", "STATE": "MA", "ZIP": "02130", "PRINCIPAL": "Bruce Robinson", "PHONE": "617-522-2261", "FAX": "617-522-0385", "GRADES": "PK,K,1,2,3,4,5,6,7,8,9,10,11,12", "TYPE": "PRI" }, "geometry": { "type": "Point", "coordinates": [ -71.130150211406132, 42.306592993626374 ] } },
{ "type": "Feature", "properties": { "OBJECTID_1": 88, "OBJECTID": 206, "SCHID": "05230001", "NAME": "EDCO Collaborative - EDCO YOUTH ALT", "ADDRESS": "650 Beacon St , 3rd Floor", "TOWN_MAIL": "Boston", "TOWN": "BOSTON", "STATE": "MA", "ZIP": "02215", "PRINCIPAL": " ", "PHONE": "617-262-9562", "FAX": "617-262-0098", "GRADES": " ", "TYPE": "COP" }, "geometry": { "type": "Point", "coordinates": [ -71.095739380016127, 42.349346445188196 ] } },
{ "type": "Feature", "properties": { "OBJECTID_1": 89, "OBJECTID": 134, "SCHID": "5600", "NAME": "Academy Of the Pacific Rim Charter Public School", "ADDRESS": "1 Westinghouse Plaza", "TOWN_MAIL": "Hyde Park", "TOWN": "BOSTON", "STATE": "MA", "ZIP": "02136", "PRINCIPAL": "Jenne Colasacco", "PHONE": "617-361-0050", "FAX": "617-361-0045", "GRADES": "5,6,7,8,9,10,11,12", "TYPE": "CHA" }, "geometry": { "type": "Point", "coordinates": [ -71.132131943137082, 42.24427045976492 ] } },
{ "type": "Feature", "properties": { "OBJECTID_1": 90, "OBJECTID": 136, "SCHID": "5500", "NAME": "Boston Collegiate Charter School (Middle and High School)", "ADDRESS": "11 Mayhew Street", "TOWN_MAIL": "Dorchester", "TOWN": "BOSTON", "STATE": "MA", "ZIP": "02125", "PRINCIPAL": "Tobey Jackson", "PHONE": "617-265-1172", "FAX": "617-265-1176", "GRADES": "5,6,7,8,9,10,11,12", "TYPE": "CHA" }, "geometry": { "type": "Point", "coordinates": [ -71.060871549790008, 42.321639754160621 ] } },
{ "type": "Feature", "properties": { "OBJECTID_1": 91, "OBJECTID": 137, "SCHID": "5520", "NAME": "Boston Preparatory Charter Public School", "ADDRESS": "1286 Hyde Park Avenue", "TOWN_MAIL": "Hyde Park", "TOWN": "BOSTON", "STATE": "MA", "ZIP": "02136", "PRINCIPAL": "Amanda Colley", "PHONE": "617-333-6688", "FAX": "617-333-6689", "GRADES": "6,7,8,9,10", "TYPE": "CHA" }, "geometry": { "type": "Point", "coordinates": [ -71.123738371050621, 42.254807094976414 ] } },
{ "type": "Feature", "properties": { "OBJECTID_1": 92, "OBJECTID": 138, "SCHID": "5400", "NAME": "Boston Renaissance Charter Public School", "ADDRESS": "1415 Hyde Park Avenue", "TOWN_MAIL": "Hyde Park", "TOWN": "BOSTON", "STATE": "MA", "ZIP": "02136", "PRINCIPAL": "Roger Harris", "PHONE": "617-357-0900", "FAX": "617-338-2647", "GRADES": "K,1,2,3,4,5,6", "TYPE": "CHA" }, "geometry": { "type": "Point", "coordinates": [ -71.126822353768148, 42.25037633508277 ] } },
{ "type": "Feature", "properties": { "OBJECTID_1": 93, "OBJECTID": 143, "SCHID": "5440", "NAME": "Codman Academy Charter Public School", "ADDRESS": "637 Washington Street", "TOWN_MAIL": "Dorchester", "TOWN": "BOSTON", "STATE": "MA", "ZIP": "02124", "PRINCIPAL": "Thabiti Brown", "PHONE": "617-287-0700", "FAX": "617-287-9064", "GRADES": "9,10,11,12", "TYPE": "CHA" }, "geometry": { "type": "Point", "coordinates": [ -71.071931183971188, 42.289448323888486 ] } },
{ "type": "Feature", "properties": { "OBJECTID_1": 94, "OBJECTID": 144, "SCHID": "5201", "NAME": "Conservatory Lab Charter School - Brighton", "ADDRESS": "320 Washington Street", "TOWN_MAIL": "Brighton", "TOWN": "BOSTON", "STATE": "MA", "ZIP": "02135", "PRINCIPAL": "Brad Kershner", "PHONE": "617-208-6200", "FAX": "617-254-8909", "GRADES": "K,1,2", "TYPE": "CHA" }, "geometry": { "type": "Point", "coordinates": [ -71.151761394950825, 42.348859654087747 ] } },
{ "type": "Feature", "properties": { "OBJECTID_1": 95, "OBJECTID": 149, "SCHID": "5450", "NAME": "Edward Brooke Charter School - Roslindale", "ADDRESS": "190 Cummins Highway", "TOWN_MAIL": "Roslindale", "TOWN": "BOSTON", "STATE": "MA", "ZIP": "02131", "PRINCIPAL": "Jon Clark", "PHONE": "617-325-7977", "FAX": "617-325-2260", "GRADES": "K,1,2,3,5,6,7,8", "TYPE": "CHA" }, "geometry": { "type": "Point", "coordinates": [ -71.1220041750056, 42.281698595047104 ] } },
{ "type": "Feature", "properties": { "OBJECTID_1": 96, "OBJECTID": 151, "SCHID": "5490", "NAME": "Excel Academy Charter School - East Boston", "ADDRESS": "58 Moore St.", "TOWN_MAIL": "East Boston", "TOWN": "BOSTON", "STATE": "MA", "ZIP": "02128", "PRINCIPAL": "Komal Bhasin", "PHONE": "617-561-1371", "FAX": "617-561-1378", "GRADES": "5,6,7,8", "TYPE": "CHA" }, "geometry": { "type": "Point", "coordinates": [ -71.018670853604817, 42.382792993268083 ] } },
{ "type": "Feature", "properties": { "OBJECTID_1": 97, "OBJECTID": 157, "SCHID": "5431", "NAME": "MATCH Charter Public High School", "ADDRESS": "1001 Commonwealth Avenue", "TOWN_MAIL": "Boston", "TOWN": "BOSTON", "STATE": "MA", "ZIP": "02215", "PRINCIPAL": "Jorge Miranda", "PHONE": "617-232-0300", "FAX": "617-232-2838", "GRADES": "9,10,11,12", "TYPE": "CHA" }, "geometry": { "type": "Point", "coordinates": [ -71.12098465017101, 42.352158016349129 ] } },
{ "type": "Feature", "properties": { "OBJECTID_1": 98, "OBJECTID": 159, "SCHID": "5700", "NAME": "Neighborhood House Charter School", "ADDRESS": "21 Queen Street", "TOWN_MAIL": "Dorchester", "TOWN": "BOSTON", "STATE": "MA", "ZIP": "02122", "PRINCIPAL": "Kevin Andrews", "PHONE": "617-825-0703", "FAX": "617-825-1829", "GRADES": "PK,K,1,2,3,4,5,6,7,8", "TYPE": "CHA" }, "geometry": { "type": "Point", "coordinates": [ -71.053471970333845, 42.293344261607537 ] } },
{ "type": "Feature", "properties": { "OBJECTID_1": 99, "OBJECTID": 166, "SCHID": "8027", "NAME": "Cathedral High", "ADDRESS": "74 Union Park", "TOWN_MAIL": "Boston", "TOWN": "BOSTON", "STATE": "MA", "ZIP": "02118", "PRINCIPAL": "Christol Murch", "PHONE": "617-542-2325", "FAX": "617-542-1745", "GRADES": "9,10,11,12", "TYPE": "PRI" }, "geometry": { "type": "Point", "coordinates": [ -71.068847827545412, 42.341110184631589 ] } },
{ "type": "Feature", "properties": { "OBJECTID_1": 100, "OBJECTID": 1521, "SCHID": "00350702", "NAME": "The Advent School", "ADDRESS": "15 Brimmer Street", "TOWN_MAIL": "Boston", "TOWN": "BOSTON", "STATE": "MA", "ZIP": "02108", "PRINCIPAL": "Nicole A. DuFauchard", "PHONE": "617-742-0520", "FAX": "--", "GRADES": "K,1,2,3,4,5,6", "TYPE": "PRI" }, "geometry": { "type": "Point", "coordinates": [ -71.072045511088945, 42.358355967196132 ] } },
{ "type": "Feature", "properties": { "OBJECTID_1": 101, "OBJECTID": 186, "SCHID": "8168", "NAME": "St John Elementary", "ADDRESS": "9 Moon", "TOWN_MAIL": "Boston", "TOWN": "BOSTON", "STATE": "MA", "ZIP": "02113", "PRINCIPAL": "Karen McLaughlin", "PHONE": "617-227-3143", "FAX": "617-227-2188", "GRADES": "PK,K,1,2,3,4,5,6,7,8", "TYPE": "PRI" }, "geometry": { "type": "Point", "coordinates": [ -71.0528619749265, 42.36388729104435 ] } },
{ "type": "Feature", "properties": { "OBJECTID_1": 102, "OBJECTID": 1128, "SCHID": "00350705", "NAME": "Berea SDA Academy", "ADDRESS": "800 Morton St.", "TOWN_MAIL": "Mattapan", "TOWN": "BOSTON", "STATE": "MA", "ZIP": "02126", "PRINCIPAL": "Grafton Jones", "PHONE": "617-436-8301", "FAX": "617-436-8304", "GRADES": "PK,K,1,2,3,4,5,6,7,8", "TYPE": "PRI" }, "geometry": { "type": "Point", "coordinates": [ -71.08771498626551, 42.282657210298964 ] } },
{ "type": "Feature", "properties": { "OBJECTID_1": 103, "OBJECTID": 178, "SCHID": "8081", "NAME": "Pope John Paul II Academy (Lower MIlls)", "ADDRESS": "2214 Dorchester Avenue", "TOWN_MAIL": "Dorchester", "TOWN": "BOSTON", "STATE": "MA", "ZIP": "02124", "PRINCIPAL": "George Milot", "PHONE": "617-265-0019", "FAX": "--", "GRADES": "PK,K,1,2,3,4,5,6,7,8", "TYPE": "PRI" }, "geometry": { "type": "Point", "coordinates": [ -71.067174312430524, 42.274440635548892 ] } },
{ "type": "Feature", "properties": { "OBJECTID_1": 104, "OBJECTID": 179, "SCHID": "8064", "NAME": "Pope John Paul II Academy (Mattapan)", "ADDRESS": "120 Babson", "TOWN_MAIL": "Mattapan", "TOWN": "BOSTON", "STATE": "MA", "ZIP": "02126", "PRINCIPAL": "Kathleen Aldridge", "PHONE": "617-265-0019", "FAX": "--", "GRADES": "PK,K,1,2,3,4,5,6,7,8", "TYPE": "PRI" }, "geometry": { "type": "Point", "coordinates": [ -71.092221984592101, 42.270766771248361 ] } },
{ "type": "Feature", "properties": { "OBJECTID_1": 105, "OBJECTID": 180, "SCHID": "8065", "NAME": "Pope John Paul II Academy (Neponset)", "ADDRESS": "239 Neponset Avenue", "TOWN_MAIL": "Dorchester", "TOWN": "BOSTON", "STATE": "MA", "ZIP": "02122", "PRINCIPAL": "Kate Brandley", "PHONE": "617-265-0019", "FAX": "--", "GRADES": "PK,K,1,2,3,4,5,6,7,8", "TYPE": "PRI" }, "geometry": { "type": "Point", "coordinates": [ -71.049521469542015, 42.290447712468833 ] } },
{ "type": "Feature", "properties": { "OBJECTID_1": 106, "OBJECTID": 182, "SCHID": "8103", "NAME": "Saint Joseph Preparatory High School", "ADDRESS": "617 Cambridge", "TOWN_MAIL": "Brighton", "TOWN": "BOSTON", "STATE": "MA", "ZIP": "02135", "PRINCIPAL": "Tom Nunan", "PHONE": "617-254-8383", "FAX": "617-254-0240", "GRADES": "9,10,11,12", "TYPE": "PRI" }, "geometry": { "type": "Point", "coordinates": [ -71.143855789093095, 42.352360817470569 ] } },
{ "type": "Feature", "properties": { "OBJECTID_1": 107, "OBJECTID": 183, "SCHID": "8071", "NAME": "South Boston Catholic Academy", "ADDRESS": "866 East Broadway", "TOWN_MAIL": "South Boston", "TOWN": "BOSTON", "STATE": "MA", "ZIP": "02127", "PRINCIPAL": "Nancy Carr", "PHONE": "617-268-2326", "FAX": "--", "GRADES": "PK,K,1,2,3,4,5", "TYPE": "PRI" }, "geometry": { "type": "Point", "coordinates": [ -71.029663893928813, 42.336052743561922 ] } },
{ "type": "Feature", "properties": { "OBJECTID_1": 110, "OBJECTID": 1523, "SCHID": "00350724", "NAME": "Commonwealth School", "ADDRESS": "151 Commonwealth Avenue", "TOWN_MAIL": "Boston", "TOWN": "BOSTON", "STATE": "MA", "ZIP": "02116", "PRINCIPAL": "William Wharton", "PHONE": "617-266-7525", "FAX": "--", "GRADES": "9,10,11,12", "TYPE": "PRI" }, "geometry": { "type": "Point", "coordinates": [ -71.078102761010527, 42.352331187153681 ] } },
{ "type": "Feature", "properties": { "OBJECTID_1": 111, "OBJECTID": 1524, "SCHID": "00350765", "NAME": "The Learning Project", "ADDRESS": "107 Marlborough Street", "TOWN_MAIL": "Boston", "TOWN": "BOSTON", "STATE": "MA", "ZIP": "02115", "PRINCIPAL": "Michael Mccord", "PHONE": "617-266-8427", "FAX": "--", "GRADES": "K,1,2,3,4,5,6", "TYPE": "PRI" }, "geometry": { "type": "Point", "coordinates": [ -71.077245924197328, 42.353518134742707 ] } },
{ "type": "Feature", "properties": { "OBJECTID_1": 112, "OBJECTID": 1525, "SCHID": "00350794", "NAME": "The Newman School", "ADDRESS": "247 Marlborough Street", "TOWN_MAIL": "Boston", "TOWN": "BOSTON", "STATE": "MA", "ZIP": "02116", "PRINCIPAL": "John Colahan", "PHONE": "617-267-4530", "FAX": "617-267-7070", "GRADES": "9,10,11,12", "TYPE": "PRI" }, "geometry": { "type": "Point", "coordinates": [ -71.082399855876162, 42.352089748899914 ] } },
{ "type": "Feature", "properties": { "OBJECTID_1": 113, "OBJECTID": 169, "SCHID": "8034", "NAME": "E Boston Central Catholic", "ADDRESS": "69 London", "TOWN_MAIL": "East Boston", "TOWN": "BOSTON", "STATE": "MA", "ZIP": "02128", "PRINCIPAL": "Maryann Manfredonia", "PHONE": "617-567-7456", "FAX": "--", "GRADES": "PK,K,1,2,3,4,5,6,7,8", "TYPE": "PRI" }, "geometry": { "type": "Point", "coordinates": [ -71.040060837842219, 42.371537082961865 ] } },
{ "type": "Feature", "properties": { "OBJECTID_1": 114, "OBJECTID": 1768, "SCHID": "00350785", "NAME": "Neighborhood School", "ADDRESS": "34 Peter Parley Rd", "TOWN_MAIL": "Jamaica Plain", "TOWN": "BOSTON", "STATE": "MA", "ZIP": "02130", "PRINCIPAL": "Tricia Morrow", "PHONE": "617-522-0880", "FAX": "--", "GRADES": "PK,K,1,2,3,4,5,6", "TYPE": "PRI" }, "geometry": { "type": "Point", "coordinates": [ -71.100694999577911, 42.310865003599361 ] } },
{ "type": "Feature", "properties": { "OBJECTID_1": 116, "OBJECTID": 1770, "SCHID": "00350882", "NAME": "St Mary Of Czestochowa", "ADDRESS": "655 Dorchester Avenue", "TOWN_MAIL": "South Boston", "TOWN": "BOSTON", "STATE": "MA", "ZIP": "02127", "PRINCIPAL": "Marie Laclaire", "PHONE": "617-268-3766", "FAX": "--", "GRADES": "PK,K,1,2,3,4,5,6,7,8", "TYPE": "PRI" }, "geometry": { "type": "Point", "coordinates": [ -71.057778900565793, 42.327710007498659 ] } },
{ "type": "Feature", "properties": { "OBJECTID_1": 117, "OBJECTID": 1771, "SCHID": "00350812", "NAME": "Paige Academy", "ADDRESS": "28 Highland Avenue", "TOWN_MAIL": "Roxbury", "TOWN": "BOSTON", "STATE": "MA", "ZIP": "02119", "PRINCIPAL": "Angela Cook", "PHONE": "617-445-6969", "FAX": "--", "GRADES": "PK,K,1", "TYPE": "PRI" }, "geometry": { "type": "Point", "coordinates": [ -71.093121608745676, 42.328775676899753 ] } },
{ "type": "Feature", "properties": { "OBJECTID_1": 118, "OBJECTID": 175, "SCHID": "8588", "NAME": "Nativity Prep School", "ADDRESS": "39 Lamartine Street", "TOWN_MAIL": "Jamaica Plain", "TOWN": "BOSTON", "STATE": "MA", "ZIP": "02130-0947", "PRINCIPAL": "Dan Roy", "PHONE": "857-728-0031", "FAX": "857-728-0037", "GRADES": "5,6,7,8", "TYPE": "PRI" }, "geometry": { "type": "Point", "coordinates": [ -71.101727411552076, 42.321556909511564 ] } },
{ "type": "Feature", "properties": { "OBJECTID_1": 119, "OBJECTID": 174, "SCHID": "", "NAME": "Mission Grammar School", "ADDRESS": "94 St Alphonsus", "TOWN_MAIL": "Roxbury", "TOWN": "BOSTON", "STATE": "MA", "ZIP": "02120", "PRINCIPAL": "Aliece Dutson", "PHONE": "617-442-2660", "FAX": "--", "GRADES": "K,1,2,3,4,5,6,7,8", "TYPE": "PRI" }, "geometry": { "type": "Point", "coordinates": [ -71.100890526931266, 42.333139238901964 ] } },
{ "type": "Feature", "properties": { "OBJECTID_1": 120, "OBJECTID": 181, "SCHID": "8060", "NAME": "Sacred Heart Elementary", "ADDRESS": "1035 Canterbury", "TOWN_MAIL": "Roslindale", "TOWN": "BOSTON", "STATE": "MA", "ZIP": "02131", "PRINCIPAL": "Monica Haldiman", "PHONE": "617-323-2500", "FAX": "617-325-7151", "GRADES": "PK,K,1,2,3,4,5,6,7,8", "TYPE": "PRI" }, "geometry": { "type": "Point", "coordinates": [ -71.122281171497846, 42.278313366787316 ] } },
{ "type": "Feature", "properties": { "OBJECTID_1": 122, "OBJECTID": 185, "SCHID": "8077", "NAME": "St Columbkille Elem", "ADDRESS": "25 Arlington Street", "TOWN_MAIL": "Brighton", "TOWN": "BOSTON", "STATE": "MA", "ZIP": "02135", "PRINCIPAL": "Mary Battles", "PHONE": "617-254-3110", "FAX": "617-254-3161", "GRADES": "PK,K,1,2,3,4,5,6,7,8", "TYPE": "PRI" }, "geometry": { "type": "Point", "coordinates": [ -71.152987455190981, 42.352441458325586 ] } },
{ "type": "Feature", "properties": { "OBJECTID_1": 123, "OBJECTID": 167, "SCHID": "8028", "NAME": "Catholic Memorial", "ADDRESS": "235 Baker Street", "TOWN_MAIL": "West Roxbury", "TOWN": "BOSTON", "STATE": "MA", "ZIP": "02132", "PRINCIPAL": "Richard Chisholm", "PHONE": "617-469-8000", "FAX": "617-325-0888", "GRADES": "7,8,9,10,11,12", "TYPE": "PRI" }, "geometry": { "type": "Point", "coordinates": [ -71.165780824513405, 42.277700929720638 ] } },
{ "type": "Feature", "properties": { "OBJECTID_1": 124, "OBJECTID": 1851, "SCHID": "00350808", "NAME": "Roxbury Latin School", "ADDRESS": "101 St Theresa Avenue", "TOWN_MAIL": "West Roxbury", "TOWN": "BOSTON", "STATE": "MA", "ZIP": "02132", "PRINCIPAL": "F Jarvis", "PHONE": "617-325-4920", "FAX": "--", "GRADES": "7,8,9,10,11,12", "TYPE": "PRI" }, "geometry": { "type": "Point", "coordinates": [ -71.157088610698125, 42.276125078898261 ] } },
{ "type": "Feature", "properties": { "OBJECTID_1": 125, "OBJECTID": 1883, "SCHID": "00350778", "NAME": "Mother Caroline Academy", "ADDRESS": "515 Blue Hill Avenue", "TOWN_MAIL": "Dorchester", "TOWN": "BOSTON", "STATE": "MA", "ZIP": "02121", "PRINCIPAL": "Frances Butler", "PHONE": "617-427-1177", "FAX": "617-427-7788", "GRADES": "5,6,7,8", "TYPE": "PRI" }, "geometry": { "type": "Point", "coordinates": [ -71.084394944383376, 42.307499151682116 ] } },
{ "type": "Feature", "properties": { "OBJECTID_1": 126, "OBJECTID": 1885, "SCHID": "00350740", "NAME": "Hollow Reed School", "ADDRESS": "93 Sedgewick Street", "TOWN_MAIL": "Jamaica Plain", "TOWN": "BOSTON", "STATE": "MA", "ZIP": "02130", "PRINCIPAL": "Khabria Brown", "PHONE": "617-524-9004", "FAX": "--", "GRADES": "PK,K", "TYPE": "PRI" }, "geometry": { "type": "Point", "coordinates": [ -71.112024734866566, 42.308242575988416 ] } },
{ "type": "Feature", "properties": { "OBJECTID_1": 127, "OBJECTID": 1886, "SCHID": "00350749", "NAME": "Italian Home For Children", "ADDRESS": "1125 Centre Street", "TOWN_MAIL": "Jamaica Plain", "TOWN": "BOSTON", "STATE": "MA", "ZIP": "02130", "PRINCIPAL": "Jane A Zopatti", "PHONE": "617-524-3116", "FAX": "617-983-5372", "GRADES": "1,2,3,4,5,6,7,8", "TYPE": "SPE" }, "geometry": { "type": "Point", "coordinates": [ -71.12664191155055, 42.302303704423451 ] } },
{ "type": "Feature", "properties": { "OBJECTID_1": 128, "OBJECTID": 1887, "SCHID": "00350947", "NAME": "Parkside Christian Academy", "ADDRESS": "670 Washington Street", "TOWN_MAIL": "Dorchester", "TOWN": "BOSTON", "STATE": "MA", "ZIP": "02124", "PRINCIPAL": "John Mallory", "PHONE": "617-522-1841", "FAX": "--", "GRADES": "PK,K,1,2,3,4,5,6,7,8", "TYPE": "PRI" }, "geometry": { "type": "Point", "coordinates": [ -71.070940968395149, 42.288342483377043 ] } },
{ "type": "Feature", "properties": { "OBJECTID_1": 129, "OBJECTID": 1888, "SCHID": "00350795", "NAME": "New Beginnings Academy", "ADDRESS": "20 Central Ave", "TOWN_MAIL": "Hyde Park", "TOWN": "BOSTON", "STATE": "MA", "ZIP": "02136", "PRINCIPAL": "Cynthia Schroder", "PHONE": "617-364-6767", "FAX": "617-364-3383", "GRADES": "PK,K,1,2,3,4,5,6,10,12", "TYPE": "PRI" }, "geometry": { "type": "Point", "coordinates": [ -71.121912963412285, 42.257295083404713 ] } },
{ "type": "Feature", "properties": { "OBJECTID_1": 132, "OBJECTID": 2246, "SCHID": "00350805", "NAME": "Park Street School", "ADDRESS": "67 Brimmer Street", "TOWN_MAIL": "Boston", "TOWN": "BOSTON", "STATE": "MA", "ZIP": "02108", "PRINCIPAL": "Tracy Bradley", "PHONE": "617-523-7577", "FAX": "617-523-7576", "GRADES": "K,1,2,3,4,7", "TYPE": "PRI" }, "geometry": { "type": "Point", "coordinates": [ -71.071716047581461, 42.356404171910256 ] } },
{ "type": "Feature", "properties": { "OBJECTID_1": 133, "OBJECTID": 2304, "SCHID": "00350768", "NAME": "Manville School", "ADDRESS": "53 Parker Hill Ave", "TOWN_MAIL": "Boston", "TOWN": "BOSTON", "STATE": "MA", "ZIP": "02120", "PRINCIPAL": "Hanna Savransky", "PHONE": "617-232-8390", "FAX": "617-232-8399", "GRADES": "1,2,3,4,5,6,7,8,9,10,11", "TYPE": "SPE" }, "geometry": { "type": "Point", "coordinates": [ -71.110049822294584, 42.330978848436786 ] } },
{ "type": "Feature", "properties": { "OBJECTID_1": 134, "OBJECTID": 168, "SCHID": "8024", "NAME": "Cristo Rey Boston High School", "ADDRESS": "100 Savin Hill Avenue", "TOWN_MAIL": "Dorchester", "TOWN": "BOSTON", "STATE": "MA", "ZIP": "02125", "PRINCIPAL": "Elizabeth Degnan", "PHONE": "617-825-2580", "FAX": "617-825-2613", "GRADES": "9,10,11,12", "TYPE": "PRI" }, "geometry": { "type": "Point", "coordinates": [ -71.053930621189664, 42.312314347704593 ] } },
{ "type": "Feature", "properties": { "OBJECTID_1": 135, "OBJECTID": 1939, "SCHID": "00350811", "NAME": "Shaloh House Jewish Day School", "ADDRESS": "29 Chestnut Hill Avenue", "TOWN_MAIL": "Brighton", "TOWN": "BOSTON", "STATE": "MA", "ZIP": "02135", "PRINCIPAL": "Don Rodkin", "PHONE": "617-787-2200", "FAX": "617-787-4693", "GRADES": "PK,K,1,2,3,4", "TYPE": "PRI" }, "geometry": { "type": "Point", "coordinates": [ -71.154298333625292, 42.347884278360979 ] } },
{ "type": "Feature", "properties": { "OBJECTID_1": 136, "OBJECTID": 172, "SCHID": "8037", "NAME": "Holy Name Elementary", "ADDRESS": "535 W Roxbury Pkwy", "TOWN_MAIL": "West Roxbury", "TOWN": "BOSTON", "STATE": "MA", "ZIP": "02132", "PRINCIPAL": "Robert Arciero", "PHONE": "617-325-9338", "FAX": "--", "GRADES": "PK,K,1,2,3,4,5,6,7,8", "TYPE": "PRI" }, "geometry": { "type": "Point", "coordinates": [ -71.148452660404061, 42.288069679060285 ] } },
{ "type": "Feature", "properties": { "OBJECTID_1": 137, "OBJECTID": 1943, "SCHID": "00350824", "NAME": "St Anne Elementary", "ADDRESS": "20 Como Rd", "TOWN_MAIL": "Hyde Park", "TOWN": "BOSTON", "STATE": "MA", "ZIP": "02136", "PRINCIPAL": "Jane Trumpis", "PHONE": "617-361-3563", "FAX": "--", "GRADES": "K,1,2,3,4,5,6,7,8", "TYPE": "PRI" }, "geometry": { "type": "Point", "coordinates": [ -71.136979030027049, 42.240142254504448 ] } },
{ "type": "Feature", "properties": { "OBJECTID_1": 138, "OBJECTID": 188, "SCHID": "8096", "NAME": "St Theresa Elementary", "ADDRESS": "40 St Theresa Avenue", "TOWN_MAIL": "West Roxbury", "TOWN": "BOSTON", "STATE": "MA", "ZIP": "02132", "PRINCIPAL": "Virginia Kelleher", "PHONE": "617-323-1050", "FAX": "617-323-8118", "GRADES": "PK,K,1,2,3,4,5,6,7,8", "TYPE": "PRI" }, "geometry": { "type": "Point", "coordinates": [ -71.157944242198909, 42.278304108968868 ] } },
{ "type": "Feature", "properties": { "OBJECTID_1": 140, "OBJECTID": 184, "SCHID": "8070", "NAME": "St Brendan Elementary", "ADDRESS": "29 Rita Rd", "TOWN_MAIL": "Dorchester", "TOWN": "BOSTON", "STATE": "MA", "ZIP": "02124", "PRINCIPAL": "Ida Ring", "PHONE": "617-282-3388", "FAX": "--", "GRADES": "K,1,2,3,4,5,6,7,8", "TYPE": "PRI" }, "geometry": { "type": "Point", "coordinates": [ -71.051245322317442, 42.281918397584008 ] } },
{ "type": "Feature", "properties": { "OBJECTID_1": 142, "OBJECTID": 2382, "SCHID": "00350890", "NAME": "St Peter Academy", "ADDRESS": "518 E Sixth Street", "TOWN_MAIL": "South Boston", "TOWN": "BOSTON", "STATE": "MA", "ZIP": "02127", "PRINCIPAL": "David Romanosky", "PHONE": "617-268-0750", "FAX": "--", "GRADES": "PK,K,1,2,3,4,5,6,7,8", "TYPE": "PRI" }, "geometry": { "type": "Point", "coordinates": [ -71.039700184261136, 42.333224209866131 ] } },
{ "type": "Feature", "properties": { "OBJECTID_1": 143, "OBJECTID": 2385, "SCHID": "00350809", "NAME": "Seaport Campus School", "ADDRESS": "197 Eighth Street", "TOWN_MAIL": "Charlestown", "TOWN": "BOSTON", "STATE": "MA", "ZIP": "02129", "PRINCIPAL": "Alex Christos Tsonas", "PHONE": "617-241-3871", "FAX": "617-241-7452", "GRADES": "8,9,10,11,12", "TYPE": "SPE" }, "geometry": { "type": "Point", "coordinates": [ -71.050274356165247, 42.375704568238469 ] } },
{ "type": "Feature", "properties": { "OBJECTID_1": 144, "OBJECTID": 2389, "SCHID": "00350729", "NAME": "Epiphany School", "ADDRESS": "154 Centre Street", "TOWN_MAIL": "Dorchester", "TOWN": "BOSTON", "STATE": "MA", "ZIP": "02124", "PRINCIPAL": "John Finley", "PHONE": "617-326-0425", "FAX": "617-326-0424", "GRADES": "5,6,7,8", "TYPE": "PRI" }, "geometry": { "type": "Point", "coordinates": [ -71.066137460522427, 42.292564717989734 ] } },
{ "type": "Feature", "properties": { "OBJECTID_1": 145, "OBJECTID": 2426, "SCHID": "00350760", "NAME": "The Kingsley Montessori School", "ADDRESS": "30 Fairfield Street", "TOWN_MAIL": "Boston", "TOWN": "BOSTON", "STATE": "MA", "ZIP": "02116", "PRINCIPAL": "Carole Forbes", "PHONE": "617-226-4900", "FAX": "--", "GRADES": "PK,K,1,2,3,4,5,6", "TYPE": "PRI" }, "geometry": { "type": "Point", "coordinates": [ -71.082219060727439, 42.350298593858511 ] } },
{ "type": "Feature", "properties": { "OBJECTID_1": 146, "OBJECTID": 2427, "SCHID": "00350910", "NAME": "The Winsor School", "ADDRESS": "103 Pilgrim Rd", "TOWN_MAIL": "Boston", "TOWN": "BOSTON", "STATE": "MA", "ZIP": "02215", "PRINCIPAL": "Carolyn McClintock", "PHONE": "617-735-9500", "FAX": "--", "GRADES": "5,6,7,8,9,10,11,12", "TYPE": "PRI" }, "geometry": { "type": "Point", "coordinates": [ -71.107547195843878, 42.34103155297646 ] } },
{ "type": "Feature", "properties": { "OBJECTID_1": 147, "OBJECTID": 2445, "SCHID": "00350813", "NAME": "Boston University Academy", "ADDRESS": "1 University Road", "TOWN_MAIL": "Boston", "TOWN": "BOSTON", "STATE": "MA", "ZIP": "02215", "PRINCIPAL": "James Berkman", "PHONE": "617-353-9000", "FAX": "617-353-8999", "GRADES": "9,10,11,12", "TYPE": "PRI" }, "geometry": { "type": "Point", "coordinates": [ -71.109791521191283, 42.351028906694559 ] } },
{ "type": "Feature", "properties": { "OBJECTID_1": 148, "OBJECTID": 2517, "SCHID": "00350758", "NAME": "Kennedy Day School", "ADDRESS": "30 Warren St, c/o Franciscan Childrens Hospital", "TOWN_MAIL": "Brighton", "TOWN": "BOSTON", "STATE": "MA", "ZIP": "02135", "PRINCIPAL": "Bonnie Paulino Lanen", "PHONE": "617-254-3800", "FAX": "617-779-1639", "GRADES": "PK,K,1,2,3,4,5,6,7,8,9,10,11,12", "TYPE": "SPE" }, "geometry": { "type": "Point", "coordinates": [ -71.142545185052896, 42.349980946440581 ] } },
{ "type": "Feature", "properties": { "OBJECTID_1": 149, "OBJECTID": 165, "SCHID": "8023", "NAME": "Boston College High", "ADDRESS": "150 Morrissey Blvd", "TOWN_MAIL": "Dorchester", "TOWN": "BOSTON", "STATE": "MA", "ZIP": "02125", "PRINCIPAL": "Stephen Hughes", "PHONE": "617-474-5010", "FAX": "617-474-5015", "GRADES": "9,10,11,12", "TYPE": "PRI" }, "geometry": { "type": "Point", "coordinates": [ -71.04564148342476, 42.316743131371716 ] } },
{ "type": "Feature", "properties": { "OBJECTID_1": 150, "OBJECTID": 2744, "SCHID": "00460865", "NAME": "Boston Trinity Academy", "ADDRESS": "17 Hale St.", "TOWN_MAIL": "Boston", "TOWN": "BOSTON", "STATE": "MA", "ZIP": "02136", "PRINCIPAL": "Timothy Wiens", "PHONE": "617-364-3700", "FAX": "617-364-3800", "GRADES": "6,7,8,9,10,11,12", "TYPE": "PRI" }, "geometry": { "type": "Point", "coordinates": [ -71.128687058659693, 42.259239076806189 ] } },
{ "type": "Feature", "properties": { "OBJECTID_1": 151, "OBJECTID": 2745, "SCHID": "00490855", "NAME": "German International School Boston", "ADDRESS": "57 Holton Street", "TOWN_MAIL": "Allston", "TOWN": "BOSTON", "STATE": "MA", "ZIP": "02134", "PRINCIPAL": "Christian Nitschke", "PHONE": "617-783-2600", "FAX": "617-783-2605", "GRADES": "PK,K,1,2,3,4,5,6,7", "TYPE": "PRI" }, "geometry": { "type": "Point", "coordinates": [ -71.136105705996954, 42.360409831255595 ] } },
{ "type": "Feature", "properties": { "OBJECTID_1": 152, "OBJECTID": 177, "SCHID": "8089", "NAME": "Pope John Paul II Academy (Columbia Road)", "ADDRESS": "790 Columbia Road", "TOWN_MAIL": "Dorchester", "TOWN": "BOSTON", "STATE": "MA", "ZIP": "02125", "PRINCIPAL": "Claire Sheridan", "PHONE": "617-265-0019", "FAX": "--", "GRADES": "PK,K,1,2,3,4,5,6,7,8", "TYPE": "PRI" }, "geometry": { "type": "Point", "coordinates": [ -71.058004972195519, 42.320558136402525 ] } },
{ "type": "Feature", "properties": { "OBJECTID_1": 153, "OBJECTID": 141, "SCHID": "5100", "NAME": "City On A Hill Charter Public School - Circuit Street", "ADDRESS": "58 Circuit Street", "TOWN_MAIL": "Roxbury", "TOWN": "BOSTON", "STATE": "MA", "ZIP": "02119", "PRINCIPAL": "Cristin Berry", "PHONE": "617-445-1515", "FAX": "617-445-9153", "GRADES": "9,10,11,12", "TYPE": "CHA" }, "geometry": { "type": "Point", "coordinates": [ -71.087636371299581, 42.324025373314285 ] } },
{ "type": "Feature", "properties": { "OBJECTID_1": 154, "OBJECTID": 2761, "SCHID": "00350872", "NAME": "St Matthew Elementary", "ADDRESS": "33 Stanton Street", "TOWN_MAIL": "Dorchester", "TOWN": "BOSTON", "STATE": "MA", "ZIP": "02124", "PRINCIPAL": "Mary Lanata", "PHONE": "617-825-7955", "FAX": "--", "GRADES": "PK,K,1,2,3,4,5,6,7,8", "TYPE": "PRI" }, "geometry": { "type": "Point", "coordinates": [ -71.080192518766012, 42.2849246358832 ] } },
{ "type": "Feature", "properties": { "OBJECTID_1": 155, "OBJECTID": 2764, "SCHID": "00350791", "NAME": "The Knight Children's Center", "ADDRESS": "161 South Huntington Ave", "TOWN_MAIL": "Jamaica Plain", "TOWN": "BOSTON", "STATE": "MA", "ZIP": "02130", "PRINCIPAL": "Pamela M Nolan", "PHONE": "617-264-5349", "FAX": "617-232-7925", "GRADES": "2,3,4,5,6,7,8,9", "TYPE": "SPE" }, "geometry": { "type": "Point", "coordinates": [ -71.111677882044589, 42.327050141625833 ] } },
{ "type": "Feature", "properties": { "OBJECTID_1": 156, "OBJECTID": 2767, "SCHID": "00350720", "NAME": "Children's Learning Center", "ADDRESS": "7 Murray Hill Rd.", "TOWN_MAIL": "Roslindale", "TOWN": "BOSTON", "STATE": "MA", "ZIP": "02131", "PRINCIPAL": "Francis Campbell", "PHONE": "617-327-2538", "FAX": "--", "GRADES": "PK,K,1,2,3,4,5,6", "TYPE": "PRI" }, "geometry": { "type": "Point", "coordinates": [ -71.126699801479646, 42.287276592435866 ] } },
{ "type": "Feature", "properties": { "OBJECTID_1": 157, "OBJECTID": 135, "SCHID": "5501", "NAME": "Boston Collegiate Charter School (Lower School)", "ADDRESS": "215 Sydney Street", "TOWN_MAIL": "Dorchester", "TOWN": "BOSTON", "STATE": "MA", "ZIP": "02125", "PRINCIPAL": " ", "PHONE": " ", "FAX": " ", "GRADES": " ", "TYPE": "CHA" }, "geometry": { "type": "Point", "coordinates": [ -71.052417566931425, 42.318827383845772 ] } },
{ "type": "Feature", "properties": { "OBJECTID_1": 158, "OBJECTID": 156, "SCHID": "5432", "NAME": "MATCH Charter Community Day School", "ADDRESS": "100 Poydras Street", "TOWN_MAIL": "Mattapan", "TOWN": "BOSTON", "STATE": "MA", "ZIP": "02126", "PRINCIPAL": " ", "PHONE": "617-983-0300 ", "FAX": "617-983-0332", "GRADES": "PK, K, 1, 2, 3, 4", "TYPE": "CHA" }, "geometry": { "type": "Point", "coordinates": [ -71.106681830441062, 42.261642588592892 ] } },
{ "type": "Feature", "properties": { "OBJECTID_1": 159, "OBJECTID": 155, "SCHID": "5480", "NAME": "KIPP Academy Boston - Middle School", "ADDRESS": "384 Warren Street", "TOWN_MAIL": "Roxbury", "TOWN": "BOSTON", "STATE": "MA", "ZIP": "02119", "PRINCIPAL": "Emily Hepler", "PHONE": "617-238-7300", "FAX": "617-652-7461", "GRADES": "5,6,7,8", "TYPE": "CHA" }, "geometry": { "type": "Point", "coordinates": [ -71.081833327336881, 42.317907444456239 ] } },
{ "type": "Feature", "properties": { "OBJECTID_1": 160, "OBJECTID": 158, "SCHID": "5430", "NAME": "MATCH Charter Public Middle School", "ADDRESS": "215 Forest Hills St.", "TOWN_MAIL": "Jamaica Plain", "TOWN": "BOSTON", "STATE": "MA", "ZIP": "02130", "PRINCIPAL": " ", "PHONE": "857-203-9668", "FAX": "857-203-9666", "GRADES": "5,6,7,8", "TYPE": "CHA" }, "geometry": { "type": "Point", "coordinates": [ -71.103767369569653, 42.305112779560154 ] } },
{ "type": "Feature", "properties": { "OBJECTID_1": 162, "OBJECTID": 140, "SCHID": "5540", "NAME": "Bridge Boston Charter School (K1-1)", "ADDRESS": "2 McLellan Street", "TOWN_MAIL": "Dorchester", "TOWN": "BOSTON", "STATE": "MA", "ZIP": "02121", "PRINCIPAL": " ", "PHONE": " ", "FAX": " ", "GRADES": "K, 1", "TYPE": "CHA" }, "geometry": { "type": "Point", "coordinates": [ -71.085441182283006, 42.301204630519408 ] } },
{ "type": "Feature", "properties": { "OBJECTID_1": 163, "OBJECTID": 148, "SCHID": "5451", "NAME": "Edward Brooke Charter School - Mattapan", "ADDRESS": "150 American Legion Highway", "TOWN_MAIL": "Dorchester", "TOWN": "BOSTON", "STATE": "MA", "ZIP": "02124", "PRINCIPAL": " ", "PHONE": " ", "FAX": " ", "GRADES": " ", "TYPE": "CHA" }, "geometry": { "type": "Point", "coordinates": [ -71.092495443052684, 42.294829762393363 ] } },
{ "type": "Feature", "properties": { "OBJECTID_1": 164, "OBJECTID": 146, "SCHID": "5530", "NAME": "Dorchester Collegiate Academy", "ADDRESS": "131 Hancock St.", "TOWN_MAIL": "Dorchester", "TOWN": "BOSTON", "STATE": "MA", "ZIP": "02125", "PRINCIPAL": "Donna Green-Ford", "PHONE": "617-379-3029", "FAX": " ", "GRADES": " ", "TYPE": "CHA" }, "geometry": { "type": "Point", "coordinates": [ -71.063395598201339, 42.311313129407736 ] } },
{ "type": "Feature", "properties": { "OBJECTID_1": 165, "OBJECTID": 160, "SCHID": "5302", "NAME": "Roxbury Prep - Dorchester", "ADDRESS": "206 Magnolia St.", "TOWN_MAIL": "Dorchester", "TOWN": "BOSTON", "STATE": "MA", "ZIP": "02121", "PRINCIPAL": "Dana Lehman", "PHONE": "617-858-2300", "FAX": "617-275-5760", "GRADES": "6,7,8", "TYPE": "CHA" }, "geometry": { "type": "Point", "coordinates": [ -71.07364952921813, 42.311368283801173 ] } },
{ "type": "Feature", "properties": { "OBJECTID_1": 166, "OBJECTID": 147, "SCHID": "5452", "NAME": "Edward Brooke Charter School - East Boston", "ADDRESS": "94 Horace Street", "TOWN_MAIL": "East Boston", "TOWN": "BOSTON", "STATE": "MA", "ZIP": "02128", "PRINCIPAL": " ", "PHONE": " ", "FAX": " ", "GRADES": " ", "TYPE": "CHA" }, "geometry": { "type": "Point", "coordinates": [ -71.016237265263044, 42.382733951799821 ] } },
{ "type": "Feature", "properties": { "OBJECTID_1": 167, "OBJECTID": 152, "SCHID": "5491", "NAME": "Excel Academy Charter School - Orient Heights", "ADDRESS": "1150 Saratoga St.", "TOWN_MAIL": "East Boston", "TOWN": "BOSTON", "STATE": "MA", "ZIP": "02124", "PRINCIPAL": " ", "PHONE": " ", "FAX": " ", "GRADES": " ", "TYPE": "CHA" }, "geometry": { "type": "Point", "coordinates": [ -70.999452543852868, 42.384368287348799 ] } },
{ "type": "Feature", "properties": { "OBJECTID_1": 168, "OBJECTID": 142, "SCHID": "5101", "NAME": "City On A Hill Charter Public School - Dudley Square", "ADDRESS": "2181 Washington Street", "TOWN_MAIL": "Roxbury", "TOWN": "BOSTON", "STATE": "MA", "ZIP": "02119", "PRINCIPAL": "Sonya Pratt", "PHONE": "617-516-5888", "FAX": "617-445-9153", "GRADES": "9,10,11,12", "TYPE": "CHA" }, "geometry": { "type": "Point", "coordinates": [ -71.082702782805512, 42.331618932424796 ] } },
{ "type": "Feature", "properties": { "OBJECTID_1": 169, "OBJECTID": 145, "SCHID": "5200", "NAME": "Conservatory Lab Charter School - Dorchester", "ADDRESS": "2120 Dorchester Avenue", "TOWN_MAIL": "Dorchester", "TOWN": "BOSTON", "STATE": "MA", "ZIP": "02124", "PRINCIPAL": "Robyn Pretlow", "PHONE": "617-254-8904", "FAX": "617-254-8909", "GRADES": "3, 4, 5, 6, 7, 8", "TYPE": "CHA" }, "geometry": { "type": "Point", "coordinates": [ -71.065981113643616, 42.276877230495167 ] } },
{ "type": "Feature", "properties": { "OBJECTID_1": 170, "OBJECTID": 162, "SCHID": "5301", "NAME": "Roxbury Prep - Lucy Stone", "ADDRESS": "22 Regina Road", "TOWN_MAIL": "Dorchester", "TOWN": "BOSTON", "STATE": "MA", "ZIP": "02124", "PRINCIPAL": "Dana Lehman", "PHONE": "617-979-0115", "FAX": "617-822-7527", "GRADES": "6,7,8", "TYPE": "CHA" }, "geometry": { "type": "Point", "coordinates": [ -71.070837630153449, 42.295558171136257 ] } },
{ "type": "Feature", "properties": { "OBJECTID_1": 172, "OBJECTID": 164, "SCHID": "5800", "NAME": "Youth Build Boston", "ADDRESS": "27 Centre Street", "TOWN_MAIL": "Roxbury", "TOWN": "BOSTON", "STATE": "MA", "ZIP": "02119", "PRINCIPAL": " ", "PHONE": " ", "FAX": " ", "GRADES": " ", "TYPE": "CHA" }, "geometry": { "type": "Point", "coordinates": [ -71.09313273949499, 42.329825609705793 ] } },
{ "type": "Feature", "properties": { "OBJECTID_1": 573, "OBJECTID": 139, "SCHID": "5541", "NAME": "Bridge Boston Charter School (2-4)", "ADDRESS": "18 Samoset Street", "TOWN_MAIL": "Dorchester", "TOWN": "BOSTON", "STATE": "MA", "ZIP": "02124", "PRINCIPAL": " ", "PHONE": " ", "FAX": " ", "GRADES": " 2, 3, 4", "TYPE": "CHA" }, "geometry": { "type": "Point", "coordinates": [ -71.064182847462149, 42.291485113683358 ] } },
{ "type": "Feature", "properties": { "OBJECTID_1": 973, "OBJECTID": 150, "SCHID": "5492", "NAME": "Excel Academy Charter High School", "ADDRESS": "7 Elkins Street", "TOWN_MAIL": "South Boston", "TOWN": "BOSTON", "STATE": "MA", "ZIP": "02127", "PRINCIPAL": "Nina Keough", "PHONE": "617-874-4143", "FAX": "--", "GRADES": "9, 10, 11, 12", "TYPE": "CHA" }, "geometry": { "type": "Point", "coordinates": [ -71.035815590924798, 42.339268705837753 ] } },
{ "type": "Feature", "properties": { "OBJECTID_1": 974, "OBJECTID": 154, "SCHID": "5481", "NAME": "KIPP Academy Boston - Elementary School", "ADDRESS": "6 Tchapitoulas Street", "TOWN_MAIL": "Mattapan", "TOWN": "BOSTON", "STATE": "MA", "ZIP": "02126", "PRINCIPAL": "Emily Hepler", "PHONE": "617-238-7300", "FAX": "617-652-7461", "GRADES": "K,1,2,3,4", "TYPE": "CHA" }, "geometry": { "type": "Point", "coordinates": [ -71.105528267698418, 42.261357753676123 ] } },
{ "type": "Feature", "properties": { "OBJECTID_1": 975, "OBJECTID": 161, "SCHID": "5303", "NAME": "Roxbury Prep - High School", "ADDRESS": "86 Wachusett Street", "TOWN_MAIL": "Jamaica Plain", "TOWN": "BOSTON", "STATE": "MA", "ZIP": "02130", "PRINCIPAL": "Shradha m Patel", "PHONE": "--", "FAX": "--", "GRADES": "9,10,11,12", "TYPE": "CHA" }, "geometry": { "type": "Point", "coordinates": [ -71.114541097290157, 42.295067072815698 ] } },
{ "type": "Feature", "properties": { "OBJECTID_1": 1373, "OBJECTID": 170, "SCHID": "8662", "NAME": "Elizabeth Seton Academy", "ADDRESS": "2220 Dorchester Ave", "TOWN_MAIL": "Dorchester", "TOWN": "BOSTON", "STATE": "MA", "ZIP": "02124", "PRINCIPAL": "Patricia Leitsinger", "PHONE": "617-296-1087", "FAX": "--", "GRADES": "9,10,11,12", "TYPE": "PRI" }, "geometry": { "type": "Point", "coordinates": [ -71.066840217798955, 42.27487511689359 ] } },
{ "type": "Feature", "properties": { "OBJECTID_1": 1374, "OBJECTID": 171, "SCHID": "", "NAME": "Good Shepherd School", "ADDRESS": "20 Winthrop Street", "TOWN_MAIL": "Charlestown", "TOWN": "BOSTON", "STATE": "MA", "ZIP": "02129", "PRINCIPAL": "Nicolette Clifford", "PHONE": "617-242-8800", "FAX": "617-242-0016", "GRADES": "PK", "TYPE": "PRI" }, "geometry": { "type": "Point", "coordinates": [ -71.061590369773185, 42.37379377760486 ] } },
{ "type": "Feature", "properties": { "OBJECTID_1": 1375, "OBJECTID": 173, "SCHID": "", "NAME": "Julie's Family Learning Program", "ADDRESS": "133 Dorchester Street", "TOWN_MAIL": "South Boston", "TOWN": "BOSTON", "STATE": "MA", "ZIP": "02127", "PRINCIPAL": "Robert Monahan", "PHONE": "617-269-6663", "FAX": "--", "GRADES": "PK, K", "TYPE": "PRI" }, "geometry": { "type": "Point", "coordinates": [ -71.047232838872944, 42.334936453602737 ] } },
{ "type": "Feature", "properties": { "OBJECTID_1": 1376, "OBJECTID": 176, "SCHID": "8642", "NAME": "Notre Dame Montessori", "ADDRESS": "265 Mt. Vernon Street", "TOWN_MAIL": "Dorchester", "TOWN": "BOSTON", "STATE": "MA", "ZIP": "02125", "PRINCIPAL": " ", "PHONE": "--", "FAX": "--", "GRADES": " ", "TYPE": "PRI" }, "geometry": { "type": "Point", "coordinates": [ -71.046258711183057, 42.318801362129328 ] } },
{ "type": "Feature", "properties": { "OBJECTID_1": 1377, "OBJECTID": 187, "SCHID": "8337", "NAME": "St Patrick Elementary", "ADDRESS": "131 Mt. Pleasant Ave", "TOWN_MAIL": "Roxbury", "TOWN": "BOSTON", "STATE": "MA", "ZIP": "02119", "PRINCIPAL": "Mary Lanata", "PHONE": "617-427-3881", "FAX": "617-427-4529", "GRADES": "PK,K,1,2,3,4,5,6,7,8", "TYPE": "PRI" }, "geometry": { "type": "Point", "coordinates": [ -71.076222352308704, 42.324920482331905 ] } }
]
}
